[{"name":"Wavetech","address":{"no":"185","street":"Hagmolenbeekweg","city":"Enschede","country":"The Netherlands"},"location":{"lat":52.1692687,"lng":6.805059099999999}},{"name":"Wiredix","address":{"no":"164","street":"Waldeck Pyrmontsingel","city":"Nijmegen","country":"The Netherlands"},"location":{"lat":51.8406408,"lng":5.866327699999999}},{"name":"Herbtechs","address":{"no":"39","street":"Zwarte Woud","city":"Utrecht","country":"The Netherlands"},"location":{"lat":52.0643559,"lng":5.1427641}},{"name":"Shadoworks","address":{"no":"9","street":"Tongerlosestraat","city":"Lichtenvoorde","country":"The Netherlands"},"location":{"lat":51.98458189999999,"lng":6.5770975}},{"name":"Wavigations","address":{"no":"112","street":"Van der Duyn van Maasdamstraat","city":"Hilversum","country":"The Netherlands"},"location":{"lat":52.2140381,"lng":5.1569501}},{"name":"Angelico","address":{"no":"84","street":"Vogelwikke","city":"Leusden","country":"The Netherlands"},"location":{"lat":52.13908319999999,"lng":5.441396999999999}},{"name":"Alpite","address":{"no":"149","street":"Venusstraat","city":"Nijmegen","country":"The Netherlands"},"location":{"lat":51.836445,"lng":5.828026899999999}},{"name":"Phantomedia","address":{"no":"171","street":"Treubstraat","city":"Tilburg","country":"The Netherlands"},"location":{"lat":51.5660039,"lng":5.052448}}]